{
  "type": "FeatureCollection",
  "features": [
    {"type":"Feature","properties":{"x_coord":"6468261.23133615","zip":"90029.0","y_coord":"1853003.78836346","suff_dir":"","fs_cd":"52","shp_addr":"Fire Station 52","sttype":"AVE","stname":"MELROSE","hseno":"4957.0","address":"4957 MELROSE AVE.","pref_dir":"","deptname":"FIRE","unitdesc":""},"geometry":{"type":"Point","coordinates":[-118.30847478565374,34.08375012794097]}},{"type":"Feature","properties":{"x_coord":"6474895.4099969","zip":"90004.0","y_coord":"1850557.76471221","suff_dir":"","fs_cd":"6","shp_addr":"Fire Station 6","sttype":"AVE","stname":"VIRGIL","hseno":"326.0","address":"326 N. VIRGIL AVE.","pref_dir":"N","deptname":"FIRE","unitdesc":""},"geometry":{"type":"Point","coordinates":[-118.28654226892745,34.07708277350275]}},{"type":"Feature","properties":{"x_coord":"6434222.00610764","zip":"90064.0","y_coord":"1838657.47355221","suff_dir":"","fs_cd":"92","shp_addr":"Fire Station 92","sttype":"BLVD","stname":"PICO","hseno":"10556.0","address":"10556 W. PICO BLVD","pref_dir":"W","deptname":"FIRE","unitdesc":""},"geometry":{"type":"Point","coordinates":[-118.42037285259569,34.04404529506214]}},{"type":"Feature","properties":{"x_coord":"6473368.7929714","zip":"90044.0","y_coord":"1811143.98888113","suff_dir":"","fs_cd":"57","shp_addr":"Fire Station 57","sttype":"AVE","stname":"VERMONT","hseno":"7800.0","address":"7800 S. VERMONT AVE.","pref_dir":"S","deptname":"FIRE","unitdesc":""},"geometry":{"type":"Point","coordinates":[-118.29120647521931,33.968767788084904]}},{"type":"Feature","properties":{"x_coord":"6407434.92713597","zip":"91406.0","y_coord":"1892973.60442105","suff_dir":"","fs_cd":"100","shp_addr":"Fire Station 100","sttype":"AVE","stname":"LOUISE","hseno":"6751.0","address":"6751 LOUISE AVE","pref_dir":"","deptname":"FIRE","unitdesc":""},"geometry":{"type":"Point","coordinates":[-118.5100228348254,34.192900556972354]}},{"type":"Feature","properties":{"x_coord":"6459832.45849556","zip":"91040.0","y_coord":"1918632.38709287","suff_dir":"","fs_cd":"24","shp_addr":"Fire Station 24","sttype":"ST","stname":"WENTWORTH","hseno":"9411.0","address":"9411 WENTWORTH ST","pref_dir":"","deptname":"FIRE","unitdesc":""},"geometry":{"type":"Point","coordinates":[-118.33703764881889,34.26401364326457]}},{"type":"Feature","properties":{"x_coord":"6427351.43257847","zip":"91402.0","y_coord":"1900317.93258013","suff_dir":"","fs_cd":"81","shp_addr":"Fire Station 81","sttype":"ST","stname":"ARMINTA","hseno":"14355.0","address":"14355 ARMINTA ST","pref_dir":"","deptname":"FIRE","unitdesc":""},"geometry":{"type":"Point","coordinates":[-118.44426999530748,34.21334138587794]}},{"type":"Feature","properties":{"x_coord":"6431749.1675494","zip":"90094.0","y_coord":"1813274.91801821","suff_dir":"","fs_cd":"67","shp_addr":"Fire Station 67","sttype":"DR","stname":"PLAYA VISTA","hseno":"5451.0","address":"5451 PLAYA VISTA DR","pref_dir":"","deptname":"FIRE","unitdesc":""},"geometry":{"type":"Point","coordinates":[-118.42849660365967,33.97421379432723]}},{"type":"Feature","properties":{"x_coord":"6472461.73113723","zip":"90732.0","y_coord":"1732654.1937613","suff_dir":"","fs_cd":"36","shp_addr":"Fire Station 36","sttype":"ST","stname":"GAFFEY","hseno":"1005.0","address":"1005 N GAFFEY ST","pref_dir":"N","deptname":"FIRE","unitdesc":""},"geometry":{"type":"Point","coordinates":[-118.29344225387213,33.7530857446022]}},{"type":"Feature","properties":{"x_coord":"6439249.11186706","zip":"90045.0","y_coord":"1806487.33808947","suff_dir":"","fs_cd":"5","shp_addr":"Fire Station 5","sttype":"AVE","stname":"EMERSON","hseno":"6621.0","address":"8900 EMERSON AVE","pref_dir":"","deptname":"FIRE","unitdesc":""},"geometry":{"type":"Point","coordinates":[-118.40367050081025,33.955648038995335]}},{"type":"Feature","properties":{"x_coord":"6392819.00000307","zip":"91326.0","y_coord":"1923584.99989104","suff_dir":"","fs_cd":"8","shp_addr":"Fire Station 8","sttype":"AVE","stname":"TAMPA","hseno":"11351.0","address":"11351 TAMPA AVE","pref_dir":"","deptname":"FIRE","unitdesc":""},"geometry":{"type":"Point","coordinates":[-118.55891757771558,34.27680196879182]}},{"type":"Feature","properties":{"x_coord":"6486410.00015664","zip":"90014.0","y_coord":"1837573.99999738","suff_dir":"","fs_cd":"9","shp_addr":"Fire Station 9","sttype":"ST","stname":"7TH","hseno":"430.0","address":"430 E 7TH ST","pref_dir":"E","deptname":"FIRE","unitdesc":""},"geometry":{"type":"Point","coordinates":[-118.24789716684731,34.04123701497589]}},{"type":"Feature","properties":{"x_coord":"6481672.00011823","zip":"90015.0","y_coord":"1836087.00001863","suff_dir":"","fs_cd":"10","shp_addr":"Fire Station 10","sttype":"ST","stname":"OLIVE","hseno":"1335.0","address":"1335 S OLIVE ST","pref_dir":"S","deptname":"FIRE","unitdesc":""},"geometry":{"type":"Point","coordinates":[-118.26403870865165,34.03737026897688]}},{"type":"Feature","properties":{"x_coord":"6478720.00011674","zip":"90057.0","y_coord":"1842668.99997796","suff_dir":"","fs_cd":"11","shp_addr":"Fire Station 11","sttype":"ST","stname":"7TH","hseno":"1819.0","address":"1819 W 7TH ST","pref_dir":"W","deptname":"FIRE","unitdesc":""},"geometry":{"type":"Point","coordinates":[-118.27384152593281,34.05543491365177]}},{"type":"Feature","properties":{"x_coord":"6503928.99989548","zip":"90042.0","y_coord":"1862802.00006622","suff_dir":"","fs_cd":"12","shp_addr":"Fire Station 12","sttype":"ST","stname":"FIGUEROA","hseno":"5921.0","address":"5921 N FIGUEROA ST","pref_dir":"N","deptname":"FIRE","unitdesc":""},"geometry":{"type":"Point","coordinates":[-118.19074248113876,34.11091760266492]}},{"type":"Feature","properties":{"x_coord":"6473433.99986199","zip":"90006.0","y_coord":"1840328.0000668","suff_dir":"","fs_cd":"13","shp_addr":"Fire Station 13","sttype":"BLVD","stname":"PICO","hseno":"2401.0","address":"2401 W PICO BLVD","pref_dir":"W","deptname":"FIRE","unitdesc":""},"geometry":{"type":"Point","coordinates":[-118.28937816222225,34.047518357055196]}},{"type":"Feature","properties":{"x_coord":"6483827.00007331","zip":"90011.0","y_coord":"1827119.99990805","suff_dir":"","fs_cd":"14","shp_addr":"Fire Station 14","sttype":"AVE","stname":"CENTRAL","hseno":"3401.0","address":"3401 S CENTRAL AV","pref_dir":"S","deptname":"FIRE","unitdesc":""},"geometry":{"type":"Point","coordinates":[-118.25685009332506,34.012745664219786]}},{"type":"Feature","properties":{"x_coord":"6475519.99995506","zip":"90007.0","y_coord":"1831292.00009422","suff_dir":"","fs_cd":"15","shp_addr":"Fire Station 15","sttype":"BLVD","stname":"JEFFERSON","hseno":"915.0","address":"915 W JEFFERSON BLVD","pref_dir":"W","deptname":"FIRE","unitdesc":""},"geometry":{"type":"Point","coordinates":[-118.28429977089868,34.02414823190091]}},{"type":"Feature","properties":{"x_coord":"6506975.00003706","zip":"90032.0","y_coord":"1846514.00016196","suff_dir":"","fs_cd":"16","shp_addr":"Fire Station 16","sttype":"AVE","stname":"EASTERN","hseno":"2011.0","address":"2011 N EASTERN AV","pref_dir":"N","deptname":"FIRE","unitdesc":""},"geometry":{"type":"Point","coordinates":[-118.18058304972818,34.066175918675896]}},{"type":"Feature","properties":{"x_coord":"6491866.2126694","zip":"90021.0","y_coord":"1831826.78741047","suff_dir":"","fs_cd":"17","shp_addr":"Fire Station 17","sttype":"AVE","stname":"SANTA FE","hseno":"1601.0","address":"1601 S SANTA FE AV","pref_dir":"S","deptname":"FIRE","unitdesc":""},"geometry":{"type":"Point","coordinates":[-118.23035853213779,34.0257327362655]}},{"type":"Feature","properties":{"x_coord":"6410218.9999799","zip":"91344.0","y_coord":"1928150.99994539","suff_dir":"","fs_cd":"18","shp_addr":"Fire Station 18","sttype":"BLVD","stname":"BALBOA","hseno":"12050.0","address":"12050 BALBOA BLVD","pref_dir":"","deptname":"FIRE","unitdesc":""},"geometry":{"type":"Point","coordinates":[-118.50139670323307,34.289600743071965]}},{"type":"Feature","properties":{"x_coord":"6416685.99984114","zip":"90049.0","y_coord":"1844088.00009272","suff_dir":"","fs_cd":"19","shp_addr":"Fire Station 19","sttype":"BLVD","stname":"SUNSET","hseno":"12229.0","address":"12229 SUNSET BLVD","pref_dir":"","deptname":"FIRE","unitdesc":""},"geometry":{"type":"Point","coordinates":[-118.47866149702475,34.05869604102462]}},{"type":"Feature","properties":{"x_coord":"6481295.99988598","zip":"90026.0","y_coord":"1850581.99989997","suff_dir":"","fs_cd":"20","shp_addr":"Fire Station 20","sttype":"BLVD","stname":"SUNSET","hseno":"2144.0","address":"2144 W SUNSET BLVD","pref_dir":"W","deptname":"FIRE","unitdesc":""},"geometry":{"type":"Point","coordinates":[-118.26540609527,34.077197656814384]}},{"type":"Feature","properties":{"x_coord":"6484517.00000565","zip":"90011.0","y_coord":"1821112.00011304","suff_dir":"","fs_cd":"21","shp_addr":"Fire Station 21","sttype":"ST","stname":"51ST","hseno":"1192.0","address":"1192 E 51ST ST","pref_dir":"E","deptname":"FIRE","unitdesc":""},"geometry":{"type":"Point","coordinates":[-118.25487269802431,33.996905503210186]}},{"type":"Feature","properties":{"x_coord":"6393756.00009756","zip":"90272.0","y_coord":"1838323.0001398","suff_dir":"","fs_cd":"23","shp_addr":"Fire Station 23","sttype":"BLVD","stname":"SUNSET","hseno":"17281.0","address":"17281 SUNSET BLVD","pref_dir":"","deptname":"FIRE","unitdesc":""},"geometry":{"type":"Point","coordinates":[-118.55425974749117,34.04253109515529]}},{"type":"Feature","properties":{"x_coord":"6498770.0000429","zip":"90023.0","y_coord":"1833751.00009747","suff_dir":"","fs_cd":"25","shp_addr":"Fire Station 25","sttype":"BLVD","stname":"WHITTIER","hseno":"2927.0","address":"2927 WHITTIER BLVD","pref_dir":"","deptname":"FIRE","unitdesc":""},"geometry":{"type":"Point","coordinates":[-118.20758753213707,34.03106151229337]}},{"type":"Feature","properties":{"x_coord":"6467953.99999523","zip":"90018.0","y_coord":"1836627.99992087","suff_dir":"","fs_cd":"26","shp_addr":"Fire Station 26","sttype":"AVE","stname":"WESTERN","hseno":"2009.0","address":"2009 S WESTERN AVE","pref_dir":"S","deptname":"FIRE","unitdesc":""},"geometry":{"type":"Point","coordinates":[-118.30932299546562,34.03874934525785]}},{"type":"Feature","properties":{"x_coord":"6461708.67882448","zip":"90028.0","y_coord":"1857346.8026433","suff_dir":"","fs_cd":"27","shp_addr":"Fire Station 27","sttype":"AVE","stname":"COLE","hseno":"1327.0","address":"1327 N COLE AVE","pref_dir":"N","deptname":"FIRE","unitdesc":""},"geometry":{"type":"Point","coordinates":[-118.33016178511232,34.09562688506799]}},{"type":"Feature","properties":{"x_coord":"6466153.99998631","zip":"90010.0","y_coord":"1845088.00006121","suff_dir":"","fs_cd":"29","shp_addr":"Fire Station 29","sttype":"BLVD","stname":"WILSHIRE","hseno":"4029.0","address":"4029 W WILSHIRE BLVD","pref_dir":"W","deptname":"FIRE","unitdesc":""},"geometry":{"type":"Point","coordinates":[-118.31535193155199,34.06198076216567]}},{"type":"Feature","properties":{"x_coord":"6478723.00011073","zip":"90003.0","y_coord":"1815701.0001083","suff_dir":"","fs_cd":"33","shp_addr":"Fire Station 33","sttype":"ST","stname":"MAIN","hseno":"6406.0","address":"6406 S MAIN ST","pref_dir":"S","deptname":"FIRE","unitdesc":""},"geometry":{"type":"Point","coordinates":[-118.27358929106366,33.981331046548206]}},{"type":"Feature","properties":{"x_coord":"6463150.00008881","zip":"90018.0","y_coord":"1830266.99984764","suff_dir":"","fs_cd":"34","shp_addr":"Fire Station 34","sttype":"AVE","stname":"7TH","hseno":"3661.0","address":"3661 7TH AVE","pref_dir":"","deptname":"FIRE","unitdesc":""},"geometry":{"type":"Point","coordinates":[-118.32511182723297,34.02122865160606]}},{"type":"Feature","properties":{"x_coord":"6425639.99997772","zip":"90024.0","y_coord":"1844518.99988689","suff_dir":"","fs_cd":"37","shp_addr":"Fire Station 37","sttype":"AVE","stname":"VETERAN","hseno":"1090.0","address":"1090 VETERAN AVE","pref_dir":"","deptname":"FIRE","unitdesc":""},"geometry":{"type":"Point","coordinates":[-118.44910614638131,34.059993904521505]}},{"type":"Feature","properties":{"x_coord":"6482138.99984039","zip":"90744.0","y_coord":"1742788.99993521","suff_dir":"","fs_cd":"38","shp_addr":"Fire Station 38","sttype":"ST","stname":"I","hseno":"124.0","address":"124 E I ST","pref_dir":"E","deptname":"FIRE","unitdesc":""},"geometry":{"type":"Point","coordinates":[-118.26169554419245,33.78100737708232]}},{"type":"Feature","properties":{"x_coord":"6426519.99985814","zip":"91401.0","y_coord":"1889985.00016205","suff_dir":"","fs_cd":"39","shp_addr":"Fire Station 39","sttype":"ST","stname":"SYLVAN","hseno":"14415.0","address":"14415 SYLVAN ST","pref_dir":"","deptname":"FIRE","unitdesc":""},"geometry":{"type":"Point","coordinates":[-118.44686811745778,34.1849379728373]}},{"type":"Feature","properties":{"x_coord":"6482170.00010648","zip":"90731.0","y_coord":"1730367.99984288","suff_dir":"","fs_cd":"40","shp_addr":"Fire Station 40","sttype":"ST","stname":"FERRY","hseno":"330.0","address":"330 FERRY ST","pref_dir":"","deptname":"FIRE","unitdesc":""},"geometry":{"type":"Point","coordinates":[-118.26148720702263,33.746877440917]}},{"type":"Feature","properties":{"x_coord":"6454750.00015657","zip":"90046.0","y_coord":"1857836.00015572","suff_dir":"","fs_cd":"41","shp_addr":"Fire Station 41","sttype":"ST","stname":"GARDNER","hseno":"1439.0","address":"1439 N GARDNER ST","pref_dir":"N","deptname":"FIRE","unitdesc":""},"geometry":{"type":"Point","coordinates":[-118.35315183308775,34.09690613237493]}},{"type":"Feature","properties":{"x_coord":"6431896.78306781","zip":"90066.0","y_coord":"1824798.41892129","suff_dir":"","fs_cd":"62","shp_addr":"Fire Station 62","sttype":"BLVD","stname":"VENICE","hseno":"11970.0","address":"11970 W. VENICE BLVD","pref_dir":"W","deptname":"FIRE","unitdesc":""},"geometry":{"type":"Point","coordinates":[-118.42817163868972,34.005880095228164]}},{"type":"Feature","properties":{"x_coord":"6497900.00014249","zip":"90041.0","y_coord":"1873209.99991946","suff_dir":"","fs_cd":"42","shp_addr":"Fire Station 42","sttype":"BLVD","stname":"COLORADO","hseno":"2021.0","address":"2021 COLORADO BLVD","pref_dir":"","deptname":"FIRE","unitdesc":""},"geometry":{"type":"Point","coordinates":[-118.21073194836286,34.13948426993484]}},{"type":"Feature","properties":{"x_coord":"6438805.62358081","zip":"90034.0","y_coord":"1831047.37558347","suff_dir":"","fs_cd":"43","shp_addr":"Fire Station 43","sttype":"AVE","stname":"MOTOR","hseno":"3690.0","address":"3690 S. MOTOR AVE","pref_dir":"S","deptname":"FIRE","unitdesc":""},"geometry":{"type":"Point","coordinates":[-118.40554452300081,34.023085283729976]}},{"type":"Feature","properties":{"x_coord":"6505058.08917274","zip":"90032.0","y_coord":"1853536.1488473","suff_dir":"","fs_cd":"47","shp_addr":"Fire Station 47","sttype":"DR","stname":"HUNTINGTON","hseno":"4575.0","address":"4575 S HUNTINGTON DR","pref_dir":"S","deptname":"FIRE","unitdesc":""},"geometry":{"type":"Point","coordinates":[-118.18695549002491,34.08546216180681]}},{"type":"Feature","properties":{"x_coord":"6473332.00006598","zip":"90731.0","y_coord":"1724136.99983771","suff_dir":"","fs_cd":"48","shp_addr":"Fire Station 48","sttype":"AVE","stname":"GRAND","hseno":"1601.0","address":"1601 S GRAND AVE","pref_dir":"S","deptname":"FIRE","unitdesc":""},"geometry":{"type":"Point","coordinates":[-118.29049852281366,33.729689420173976]}},{"type":"Feature","properties":{"x_coord":"6487640.86711748","zip":"90065.0","y_coord":"1864446.27564904","suff_dir":"","fs_cd":"50","shp_addr":"Fire Station 50","sttype":"DR","stname":"FLETCHER","hseno":"3036.0","address":"3036 FLETCHER DR","pref_dir":"","deptname":"FIRE","unitdesc":""},"geometry":{"type":"Point","coordinates":[-118.2445650758705,34.11533892720518]}},{"type":"Feature","properties":{"x_coord":"6495275.00014314","zip":"90041.0","y_coord":"1867638.99990663","suff_dir":"","fs_cd":"55","shp_addr":"Fire Station 55","sttype":"BLVD","stname":"YORK","hseno":"4455.0","address":"4455 E YORK BLVD","pref_dir":"E","deptname":"FIRE","unitdesc":""},"geometry":{"type":"Point","coordinates":[-118.21936667211293,34.12416049793684]}},{"type":"Feature","properties":{"x_coord":"6481865.00006032","zip":"90039.0","y_coord":"1861634.00010563","suff_dir":"","fs_cd":"56","shp_addr":"Fire Station 56","sttype":"AVE","stname":"ROWENA","hseno":"2759.0","address":"2759 ROWENA AVE","pref_dir":"","deptname":"FIRE","unitdesc":""},"geometry":{"type":"Point","coordinates":[-118.26362282735617,34.107571072314315]}},{"type":"Feature","properties":{"x_coord":"6445374.99987774","zip":"90035.0","y_coord":"1841194.99997321","suff_dir":"","fs_cd":"58","shp_addr":"Fire Station 58","sttype":"BLVD","stname":"ROBERTSON","hseno":"1556.0","address":"1556 S ROBERTSON BLVD","pref_dir":"S","deptname":"FIRE","unitdesc":""},"geometry":{"type":"Point","coordinates":[-118.3839676448887,34.050699789423014]}},{"type":"Feature","properties":{"x_coord":"6427033.00014448","zip":"90025.0","y_coord":"1836026.00014064","suff_dir":"","fs_cd":"59","shp_addr":"Fire Station 59","sttype":"BLVD","stname":"OLYMPIC","hseno":"11505.0","address":"11505 W OLYMPIC BLVD","pref_dir":"W","deptname":"FIRE","unitdesc":""},"geometry":{"type":"Point","coordinates":[-118.44438310627994,34.03667357305661]}},{"type":"Feature","properties":{"x_coord":"6447138.99995865","zip":"91601.0","y_coord":"1883554.99989872","suff_dir":"","fs_cd":"60","shp_addr":"Fire Station 60","sttype":"AVE","stname":"TUJUNGA","hseno":"5320.0","address":"5320 TUJUNGA AVE","pref_dir":"","deptname":"FIRE","unitdesc":""},"geometry":{"type":"Point","coordinates":[-118.37861115007448,34.16750196113168]}},{"type":"Feature","properties":{"x_coord":"6488796.75719415","zip":"90002.0","y_coord":"1802837.75155664","suff_dir":"","fs_cd":"65","shp_addr":"Fire Station 65","sttype":"BLVD","stname":"CENTURY","hseno":"1801.0","address":"1801 E CENTURY BLVD","pref_dir":"E","deptname":"FIRE","unitdesc":""},"geometry":{"type":"Point","coordinates":[-118.24025977006441,33.946055695122816]}},{"type":"Feature","properties":{"x_coord":"6490029.00013648","zip":"90012.0","y_coord":"1843988.99996263","suff_dir":"","fs_cd":"4","shp_addr":"Fire Station 4","sttype":"ST","stname":"TEMPLE","hseno":"450.0","address":"450 E TEMPLE ST","pref_dir":"E","deptname":"FIRE","unitdesc":""},"geometry":{"type":"Point","coordinates":[-118.2360793261555,34.050171452491895]}},{"type":"Feature","properties":{"x_coord":"6456627.00001147","zip":"90036.0","y_coord":"1847823.99983855","suff_dir":"","fs_cd":"61","shp_addr":"Fire Station 61","sttype":"ST","stname":"3RD","hseno":"5821.0","address":"5821 W 3RD ST","pref_dir":"W","deptname":"FIRE","unitdesc":""},"geometry":{"type":"Point","coordinates":[-118.34708449440089,34.06941193256844]}},{"type":"Feature","properties":{"x_coord":"6474745.15832889","zip":"90037.0","y_coord":"1824053.34035896","suff_dir":"","fs_cd":"46","shp_addr":"Fire Station 46","sttype":"ST","stname":"HOOVER","hseno":"4370.0","address":"4370 S. HOOVER ST.","pref_dir":"S","deptname":"FIRE","unitdesc":""},"geometry":{"type":"Point","coordinates":[-118.28678871805577,34.00425147707448]}},{"type":"Feature","properties":{"x_coord":"6477051.63271856","zip":"90731.0","y_coord":"1728081.27967879","suff_dir":"","fs_cd":"112","shp_addr":"Fire Station 112","sttype":"BLVD","stname":"HARBOR","hseno":"444.0","address":"444 S HARBOR BLVD","pref_dir":"S","deptname":"FIRE","unitdesc":"BERTH #86"},"geometry":{"type":"Point","coordinates":[-118.27830206826947,33.74055629592701]}},{"type":"Feature","properties":{"x_coord":"6491737.95636423","zip":"90065.0","y_coord":"1857708.59981996","suff_dir":"","fs_cd":"44","shp_addr":"Fire Station 44","sttype":"AVE","stname":"CYPRESS","hseno":"1410.0","address":"1410 CYPRESS AVE","pref_dir":"","deptname":"FIRE","unitdesc":""},"geometry":{"type":"Point","coordinates":[-118.23097808594562,34.09685137694621]}},{"type":"Feature","properties":{"x_coord":"6455938.00007714","zip":"90019.0","y_coord":"1837474.99986729","suff_dir":"","fs_cd":"68","shp_addr":"Fire Station 68","sttype":"BLVD","stname":"WASHINGTON","hseno":"5023.0","address":"5023 W WASHINGTON BLVD","pref_dir":"W","deptname":"FIRE","unitdesc":""},"geometry":{"type":"Point","coordinates":[-118.3492472791763,34.04102556541158]}},{"type":"Feature","properties":{"x_coord":"6422717.99991623","zip":"90291.0","y_coord":"1819469.00011821","suff_dir":"","fs_cd":"63","shp_addr":"Fire Station 63","sttype":"AVE","stname":"SHELL","hseno":"1930.0","address":"1930 SHELL AVE","pref_dir":"","deptname":"FIRE","unitdesc":""},"geometry":{"type":"Point","coordinates":[-118.45837615115826,33.991124554981624]}},{"type":"Feature","properties":{"x_coord":"6478455.99998856","zip":"90061.0","y_coord":"1799944.0001263","suff_dir":"","fs_cd":"64","shp_addr":"Fire Station 64","sttype":"ST","stname":"MAIN","hseno":"10811.0","address":"10811 S. MAIN ST","pref_dir":"S","deptname":"FIRE","unitdesc":""},"geometry":{"type":"Point","coordinates":[-118.27432813839545,33.9380314189331]}},{"type":"Feature","properties":{"x_coord":"6403562.99984048","zip":"90272.0","y_coord":"1839013.00007214","suff_dir":"","fs_cd":"69","shp_addr":"Fire Station 69","sttype":"BLVD","stname":"SUNSET","hseno":"15045.0","address":"15045 SUNSET BLVD","pref_dir":"","deptname":"FIRE","unitdesc":""},"geometry":{"type":"Point","coordinates":[-118.52190004739653,34.04457134771043]}},{"type":"Feature","properties":{"x_coord":"6399561.99996848","zip":"91324.0","y_coord":"1913586.99987397","suff_dir":"","fs_cd":"70","shp_addr":"Fire Station 70","sttype":"BLVD","stname":"RESEDA","hseno":"9861.0","address":"9861 RESEDA BLVD","pref_dir":"","deptname":"FIRE","unitdesc":""},"geometry":{"type":"Point","coordinates":[-118.53642079516824,34.24943012846408]}},{"type":"Feature","properties":{"x_coord":"6465498.99998398","zip":"90028.0","y_coord":"1860200.00002088","suff_dir":"","fs_cd":"82","shp_addr":"Fire Station 82","sttype":"BLVD","stname":"HOLLYWOOD","hseno":"5769.0","address":"5769 HOLLYWOOD BLVD","pref_dir":"","deptname":"FIRE","unitdesc":""},"geometry":{"type":"Point","coordinates":[-118.31545604892439,34.1020464036287]}},{"type":"Feature","properties":{"x_coord":"6474558.99990857","zip":"90027.0","y_coord":"1858902.99999021","suff_dir":"","fs_cd":"35","shp_addr":"Fire Station 35","sttype":"AVE","stname":"HILLHURST","hseno":"1601.0","address":"1601 N HILLHURST AVE","pref_dir":"N","deptname":"FIRE","unitdesc":""},"geometry":{"type":"Point","coordinates":[-118.28774653869456,34.100217673230304]}},{"type":"Feature","properties":{"x_coord":"6429783.99989182","zip":"90024.0","y_coord":"1851971.00007471","suff_dir":"","fs_cd":"71","shp_addr":"Fire Station 71","sttype":"BLVD","stname":"BEVERLY GLEN","hseno":"107.0","address":"107 S BEVERLY GLEN BLVD","pref_dir":"S","deptname":"FIRE","unitdesc":""},"geometry":{"type":"Point","coordinates":[-118.43553107930846,34.08052088855879]}},{"type":"Feature","properties":{"x_coord":"6383625.0000184","zip":"91303.0","y_coord":"1893486.0000498","suff_dir":"","fs_cd":"72","shp_addr":"Fire Station 72","sttype":"AVE","stname":"DE SOTO","hseno":"6811.0","address":"6811 DE SOTO AVE","pref_dir":"","deptname":"FIRE","unitdesc":""},"geometry":{"type":"Point","coordinates":[-118.58876718472386,34.19395093246489]}},{"type":"Feature","properties":{"x_coord":"6399489.00011449","zip":"91335.0","y_coord":"1897468.9999578","suff_dir":"","fs_cd":"73","shp_addr":"Fire Station 73","sttype":"BLVD","stname":"RESEDA","hseno":"7419.0","address":"7419 RESEDA BLVD","pref_dir":"","deptname":"FIRE","unitdesc":""},"geometry":{"type":"Point","coordinates":[-118.53637774516599,34.20513950686476]}},{"type":"Feature","properties":{"x_coord":"6470476.99987048","zip":"91042.0","y_coord":"1916646.99998754","suff_dir":"","fs_cd":"74","shp_addr":"Fire Station 74","sttype":"BLVD","stname":"FOOTHILL","hseno":"7777.0","address":"7777 FOOTHILL BLVD","pref_dir":"","deptname":"FIRE","unitdesc":""},"geometry":{"type":"Point","coordinates":[-118.30178822261583,34.258651032352134]}},{"type":"Feature","properties":{"x_coord":"6420707.00000124","zip":"91345.0","y_coord":"1921863.00005421","suff_dir":"","fs_cd":"75","shp_addr":"Fire Station 75","sttype":"BLVD","stname":"SAN FERNANDO MISSION","hseno":"15345.0","address":"15345 SAN FERNANDO MISSION BLV","pref_dir":"","deptname":"FIRE","unitdesc":""},"geometry":{"type":"Point","coordinates":[-118.46657804382652,34.27246110929507]}},{"type":"Feature","properties":{"x_coord":"6457008.99990365","zip":"90068.0","y_coord":"1868669.00014322","suff_dir":"W","fs_cd":"76","shp_addr":"Fire Station 76","sttype":"BLVD","stname":"CAHUENGA","hseno":"3111.0","address":"3111 N CAHUENGA BLVD WEST","pref_dir":"N","deptname":"FIRE","unitdesc":""},"geometry":{"type":"Point","coordinates":[-118.34581339017929,34.12669517691025]}},{"type":"Feature","properties":{"x_coord":"6450759.36903022","zip":"91352.0","y_coord":"1908576.5446718","suff_dir":"","fs_cd":"77","shp_addr":"Fire Station 77","sttype":"BLVD","stname":"SUNLAND","hseno":"9224.0","address":"9224 SUNLAND BLVD","pref_dir":"","deptname":"FIRE","unitdesc":""},"geometry":{"type":"Point","coordinates":[-118.36694483072537,34.236294355377716]}},{"type":"Feature","properties":{"x_coord":"6438895.57517256","zip":"91604.0","y_coord":"1875197.2807218","suff_dir":"","fs_cd":"78","shp_addr":"Fire Station 78","sttype":"AVE","stname":"WHITSETT","hseno":"4041.0","address":"4041 WHITSETT AVE","pref_dir":"","deptname":"FIRE","unitdesc":""},"geometry":{"type":"Point","coordinates":[-118.4057508505372,34.144447832764875]}},{"type":"Feature","properties":{"x_coord":"6473538.99998006","zip":"90248.0","y_coord":"1774632.99989538","suff_dir":"","fs_cd":"79","shp_addr":"Fire Station 79","sttype":"AVE","stname":"VERMONT","hseno":"18030.0","address":"18030 S VERMONT AVE","pref_dir":"S","deptname":"FIRE","unitdesc":""},"geometry":{"type":"Point","coordinates":[-118.29029737711149,33.86844338279925]}},{"type":"Feature","properties":{"x_coord":"6436608.66439207","zip":"90045.0","y_coord":"1802182.15313029","suff_dir":"W","fs_cd":"80","shp_addr":"Fire Station 80","sttype":"WAY","stname":"WORLD","hseno":"7250.0","address":"7250 WORLD WAY WEST","pref_dir":"","deptname":"FIRE","unitdesc":""},"geometry":{"type":"Point","coordinates":[-118.41940284058768,33.940631724725186]}},{"type":"Feature","properties":{"x_coord":"6428745.00000131","zip":"91331.0","y_coord":"1908407.00006337","suff_dir":"","fs_cd":"7","shp_addr":"Fire Station 7","sttype":"ST","stname":"NORDHOFF","hseno":"14123.0","address":"14123 NORDHOFF ST","pref_dir":"","deptname":"FIRE","unitdesc":""},"geometry":{"type":"Point","coordinates":[-118.43977765909119,34.235585723757346]}},{"type":"Feature","properties":{"x_coord":"6485335.80939165","zip":"90012.0","y_coord":"1843771.55846839","suff_dir":"","fs_cd":"3","shp_addr":"Fire Station 3","sttype":"AVE","stname":"FREMONT","hseno":"108.0","address":"108 N. FREMONT AVE","pref_dir":"N","deptname":"FIRE","unitdesc":""},"geometry":{"type":"Point","coordinates":[-118.25200920290452,34.05851213320664]}},{"type":"Feature","properties":{"x_coord":"6467219.0001529","zip":"90047.0","y_coord":"1818678.0000598","suff_dir":"","fs_cd":"66","shp_addr":"Fire Station 66","sttype":"BLVD","stname":"SLAUSON","hseno":"1909.0","address":"1909 W SLAUSON BLVD","pref_dir":"W","deptname":"FIRE","unitdesc":""},"geometry":{"type":"Point","coordinates":[-118.31156538931904,33.98941934918524]}},{"type":"Feature","properties":{"x_coord":"6438453.99994023","zip":"90210.0","y_coord":"1869383.00002755","suff_dir":"","fs_cd":"108","shp_addr":"Fire Station 108","sttype":"DR","stname":"MULHOLLAND","hseno":"12520.0","address":"12520 MULHOLLAND DR","pref_dir":"","deptname":"FIRE","unitdesc":""},"geometry":{"type":"Point","coordinates":[-118.40616939509613,34.127097716473564]}},{"type":"Feature","properties":{"x_coord":"6410230.17187357","zip":"91436.0","y_coord":"1881367.71063814","suff_dir":"","fs_cd":"83","shp_addr":"Fire Station 83","sttype":"BLVD","stname":"BALBOA","hseno":"4960.0","address":"4960 BALBOA BLVD","pref_dir":"","deptname":"FIRE","unitdesc":""},"geometry":{"type":"Point","coordinates":[-118.50058837316446,34.16104807938862]}},{"type":"Feature","properties":{"x_coord":"6382763.40200406","zip":"91367.0","y_coord":"1885785.61879705","suff_dir":"","fs_cd":"84","shp_addr":"Fire Station 84","sttype":"BLVD","stname":"BURBANK","hseno":"21050.0","address":"21050 BURBANK BLVD","pref_dir":"","deptname":"FIRE","unitdesc":""},"geometry":{"type":"Point","coordinates":[-118.59146650583604,34.172777745754104]}},{"type":"Feature","properties":{"x_coord":"6470505.00014256","zip":"90710.0","y_coord":"1747921.9998398","suff_dir":"","fs_cd":"85","shp_addr":"Fire Station 85","sttype":"ST","stname":"253RD","hseno":"1331.0","address":"1331 W 253RD ST","pref_dir":"W","deptname":"FIRE","unitdesc":""},"geometry":{"type":"Point","coordinates":[-118.30002885108439,33.79502243814195]}},{"type":"Feature","properties":{"x_coord":"6410057.90351731","zip":"91343.0","y_coord":"1915460.12047155","suff_dir":"","fs_cd":"87","shp_addr":"Fire Station 87","sttype":"BLVD","stname":"BALBOA","hseno":"10124.0","address":"10124 BALBOA BLVD","pref_dir":"","deptname":"FIRE","unitdesc":""},"geometry":{"type":"Point","coordinates":[-118.50172032004558,34.25472608909484]}},{"type":"Feature","properties":{"x_coord":"6441681.00004789","zip":"91605.0","y_coord":"1895081.00014064","suff_dir":"","fs_cd":"89","shp_addr":"Fire Station 89","sttype":"BLVD","stname":"LAUREL CANYON","hseno":"7063.0","address":"7063 LAUREL CANYON BLVD","pref_dir":"","deptname":"FIRE","unitdesc":""},"geometry":{"type":"Point","coordinates":[-118.39680470661675,34.19911583475195]}},{"type":"Feature","properties":{"x_coord":"6426615.99999423","zip":"91342.0","y_coord":"1935281.00012104","suff_dir":"","fs_cd":"91","shp_addr":"Fire Station 91","sttype":"ST","stname":"POLK","hseno":"14430.0","address":"14430 POLK ST","pref_dir":"","deptname":"FIRE","unitdesc":""},"geometry":{"type":"Point","coordinates":[-118.44721705585009,34.309405430767676]}},{"type":"Feature","properties":{"x_coord":"6395657.99990249","zip":"91356.0","y_coord":"1885728.00014588","suff_dir":"","fs_cd":"93","shp_addr":"Fire Station 93","sttype":"BLVD","stname":"VENTURA","hseno":"19059.0","address":"19059 VENTURA BLVD","pref_dir":"","deptname":"FIRE","unitdesc":""},"geometry":{"type":"Point","coordinates":[-118.54883591782553,34.17282039981702]}},{"type":"Feature","properties":{"x_coord":"6457060.00012973","zip":"90008.0","y_coord":"1829041.00000305","suff_dir":"","fs_cd":"94","shp_addr":"Fire Station 94","sttype":"ST","stname":"COLISEUM","hseno":"4470.0","address":"4470 COLISEUM ST","pref_dir":"","deptname":"FIRE","unitdesc":""},"geometry":{"type":"Point","coordinates":[-118.34538583385286,34.01756739620395]}},{"type":"Feature","properties":{"x_coord":"6446038.99986206","zip":"90045.0","y_coord":"1802705.99985163","suff_dir":"","fs_cd":"95","shp_addr":"Fire Station 95","sttype":"RD","stname":"INTERNATIONAL","hseno":"10010.0","address":"10010 INTERNATIONAL RD","pref_dir":"","deptname":"FIRE","unitdesc":""},"geometry":{"type":"Point","coordinates":[-118.38123385196457,33.94533044036069]}},{"type":"Feature","properties":{"x_coord":"6379422.99989224","zip":"91311.0","y_coord":"1912945.99984363","suff_dir":"","fs_cd":"96","shp_addr":"Fire Station 96","sttype":"ST","stname":"MARILLA","hseno":"21800.0","address":"21800 MARILLA ST","pref_dir":"","deptname":"FIRE","unitdesc":""},"geometry":{"type":"Point","coordinates":[-118.60304855411374,34.24735510683549]}},{"type":"Feature","properties":{"x_coord":"6448298.96614264","zip":"90046.0","y_coord":"1868249.70012879","suff_dir":"","fs_cd":"97","shp_addr":"Fire Station 97","sttype":"DR","stname":"MULHOLLAND","hseno":"8021.0","address":"8021 MULHOLLAND DR","pref_dir":"","deptname":"FIRE","unitdesc":""},"geometry":{"type":"Point","coordinates":[-118.37458795801471,34.125457236119516]}},{"type":"Feature","properties":{"x_coord":"6435637.99999481","zip":"91331.0","y_coord":"1920925.99995971","suff_dir":"","fs_cd":"98","shp_addr":"Fire Station 98","sttype":"BLVD","stname":"VAN NUYS","hseno":"13035.0","address":"13035 VAN NUYS BLVD","pref_dir":"","deptname":"FIRE","unitdesc":""},"geometry":{"type":"Point","coordinates":[-118.4171439999908,34.27006673612912]}},{"type":"Feature","properties":{"x_coord":"6428400.81630649","zip":"90210.0","y_coord":"1870644.6874648","suff_dir":"","fs_cd":"99","shp_addr":"Fire Station 99","sttype":"DR","stname":"MULHOLLAND","hseno":"14145.0","address":"14145 MULHOLLAND DR","pref_dir":"","deptname":"FIRE","unitdesc":""},"geometry":{"type":"Point","coordinates":[-118.44036903493422,34.13181663904646]}},{"type":"Feature","properties":{"x_coord":"6467307.69616974","zip":"90732.0","y_coord":"1721328.2813738","suff_dir":"","fs_cd":"101","shp_addr":"Fire Station 101","sttype":"ST","stname":"25TH","hseno":"1414.0","address":"1414 W 25TH ST","pref_dir":"W","deptname":"FIRE","unitdesc":""},"geometry":{"type":"Point","coordinates":[-118.31028149179164,33.721922264383515]}},{"type":"Feature","properties":{"x_coord":"6434214.99988806","zip":"91401.0","y_coord":"1885195.99989755","suff_dir":"","fs_cd":"102","shp_addr":"Fire Station 102","sttype":"BLVD","stname":"BURBANK","hseno":"13200.0","address":"13200 BURBANK BLVD","pref_dir":"","deptname":"FIRE","unitdesc":""},"geometry":{"type":"Point","coordinates":[-118.42135820574181,34.17186986296526]}},{"type":"Feature","properties":{"x_coord":"6401950.00011373","zip":"91325.0","y_coord":"1906120.00004421","suff_dir":"","fs_cd":"103","shp_addr":"Fire Station 103","sttype":"ST","stname":"PARTHENIA","hseno":"18143.0","address":"18143 PARTHENIA ST","pref_dir":"","deptname":"FIRE","unitdesc":""},"geometry":{"type":"Point","coordinates":[-118.52838891955325,34.22894682269816]}},{"type":"Feature","properties":{"x_coord":"6388941.99988306","zip":"91306.0","y_coord":"1903362.99998079","suff_dir":"","fs_cd":"104","shp_addr":"Fire Station 104","sttype":"AVE","stname":"WINNETKA","hseno":"8349.0","address":"8349 WINNETKA AVE","pref_dir":"","deptname":"FIRE","unitdesc":""},"geometry":{"type":"Point","coordinates":[-118.57137040785489,34.22117551645663]}},{"type":"Feature","properties":{"x_coord":"6373045.99985097","zip":"91367.0","y_coord":"1890453.99988021","suff_dir":"","fs_cd":"105","shp_addr":"Fire Station 105","sttype":"AVE","stname":"FALLBROOK","hseno":"6345.0","address":"6345 FALLBROOK AVE","pref_dir":"","deptname":"FIRE","unitdesc":""},"geometry":{"type":"Point","coordinates":[-118.62368786670643,34.185444217528875]}},{"type":"Feature","properties":{"x_coord":"6371843.9999584","zip":"91304.0","y_coord":"1902689.00001647","suff_dir":"","fs_cd":"106","shp_addr":"Fire Station 106","sttype":"BLVD","stname":"ROSCOE","hseno":"23004.0","address":"23004 ROSCOE BLVD","pref_dir":"","deptname":"FIRE","unitdesc":""},"geometry":{"type":"Point","coordinates":[-118.62791498253536,34.21904320387493]}},{"type":"Feature","properties":{"x_coord":"6388381.00002082","zip":"91311.0","y_coord":"1916595.00009155","suff_dir":"","fs_cd":"107","shp_addr":"Fire Station 107","sttype":"ST","stname":"DEVONSHIRE","hseno":"20225.0","address":"20225 DEVONSHIRE ST","pref_dir":"","deptname":"FIRE","unitdesc":""},"geometry":{"type":"Point","coordinates":[-118.57347587033405,34.25752597245919]}},{"type":"Feature","properties":{"x_coord":"6412579.99985106","zip":"90049.0","y_coord":"1870306.00015005","suff_dir":"","fs_cd":"109","shp_addr":"Fire Station 109","sttype":"DR","stname":"MULHOLLAND","hseno":"16500.0","address":"16500 MULHOLLAND DR","pref_dir":"","deptname":"FIRE","unitdesc":""},"geometry":{"type":"Point","coordinates":[-118.49264169914534,34.13068421802411]}},{"type":"Feature","properties":{"x_coord":"6477736.00011623","zip":"90731.0","y_coord":"1720046.00014572","suff_dir":"","fs_cd":"110","shp_addr":"Fire Station 110","sttype":"ST","stname":"MINER","hseno":"2945.0","address":"2945 MINER ST","pref_dir":"","deptname":"FIRE","unitdesc":"BERTH #44A"},"geometry":{"type":"Point","coordinates":[-118.2759786078279,33.71848242754944]}},{"type":"Feature","properties":{"x_coord":"6480098.9999834","zip":"90731.0","y_coord":"1723632.99986146","suff_dir":"","fs_cd":"111","shp_addr":"Fire Station 111","sttype":"AVE","stname":"SEASIDE","hseno":"1444.0","address":"1444 S SEASIDE AVE","pref_dir":"S","deptname":"FIRE","unitdesc":"BERTH #256"},"geometry":{"type":"Point","coordinates":[-118.26813028712391,33.73000858434234]}},{"type":"Feature","properties":{"x_coord":"6483172.00007097","zip":"90744.0","y_coord":"1736676.00002213","suff_dir":"","fs_cd":"49","shp_addr":"Fire Station 49","sttype":"ST","stname":"YACHT","hseno":"400.0","address":"400 YACHT ST","pref_dir":"","deptname":"FIRE","unitdesc":"BERTH 194"},"geometry":{"type":"Point","coordinates":[-118.25556561504338,33.76568595704989]}},{"type":"Feature","properties":{"x_coord":"6420547.99999115","zip":"91403.0","y_coord":"1882048.99995796","suff_dir":"","fs_cd":"88","shp_addr":"Fire Station 88","sttype":"BLVD","stname":"SEPULVEDA","hseno":"5101.0","address":"5101 N SEPULVEDA BLVD","pref_dir":"N","deptname":"FIRE","unitdesc":""},"geometry":{"type":"Point","coordinates":[-118.46649272689847,34.16305654051595]}},{"type":"Feature","properties":{"x_coord":"6441464.00015381","zip":"90045.0","y_coord":"1800833.99998671","suff_dir":"","fs_cd":"51","shp_addr":"Fire Station 51","sttype":"BLVD","stname":"SEPULVEDA","hseno":"10435.0","address":"10435 S SEPULVEDA BLVD","pref_dir":"S","deptname":"FIRE","unitdesc":""},"geometry":{"type":"Point","coordinates":[-118.3971902418473,33.9404853540229]}},{"type":"Feature","properties":{"x_coord":"6495557.99990523","zip":"90031.0","y_coord":"1849798.00015563","suff_dir":"","fs_cd":"1","shp_addr":"Fire Station 1","sttype":"AVE","stname":"PASADENA","hseno":"2230.0","address":"2230 PASADENA AVE","pref_dir":"","deptname":"FIRE","unitdesc":""},"geometry":{"type":"Point","coordinates":[-118.21830358129615,34.0751376342948]}},{"type":"Feature","properties":{"x_coord":"6496909.00015599","zip":"90033.0","y_coord":"1840347.0000288","suff_dir":"","fs_cd":"2","shp_addr":"Fire Station 2","sttype":"AVE","stname":"CESAR E CHAVEZ","hseno":"1962.0","address":"1962 E CESAR E CHAVEZ AVE","pref_dir":"E","deptname":"FIRE","unitdesc":""},"geometry":{"type":"Point","coordinates":[-118.21377595696214,34.0491756310637]}},{"type":"Feature","properties":{"x_coord":"6389579.26041956","zip":"91326.0","y_coord":"1925228.45526555","suff_dir":"","fs_cd":"28","shp_addr":"Fire Station 28","sttype":"AVE","stname":"CORBIN","hseno":"11641.0","address":"11641 CORBIN AVE","pref_dir":"","deptname":"FIRE","unitdesc":""},"geometry":{"type":"Point","coordinates":[-118.56967232979086,34.28126792068409]}},{"type":"Feature","properties":{"x_coord":"6412164.77299123","zip":"91406.0","y_coord":"1901375.78217046","suff_dir":"","fs_cd":"114","shp_addr":"Air Operation","sttype":"ST","stname":"ARMINTA","hseno":"16617.0","address":"16617 ARMINTA ST","pref_dir":"","deptname":"FIRE","unitdesc":""},"geometry":{"type":"Point","coordinates":[-118.49451884473707,34.21605331343816]}},{"type":"Feature","properties":{"x_coord":"6415338.87917581","zip":"91406.0","y_coord":"1900751.76931088","suff_dir":"","fs_cd":"90","shp_addr":"Fire Station 90","sttype":"AVE","stname":"WOODLEY","hseno":"7921.0","address":"7921 WOODLEY AVE","pref_dir":"","deptname":"FIRE","unitdesc":""},"geometry":{"type":"Point","coordinates":[-118.48400983609078,34.2143810811325]}},{"type":"Feature","properties":{"x_coord":"6449656.08350715","zip":"91602.0","y_coord":"1877294.11478272","suff_dir":"","fs_cd":"86","shp_addr":"Fire Station 86","sttype":"AVE","stname":"VINELAND","hseno":"4305.0","address":"4305 VINELAND AVE.","pref_dir":"","deptname":"FIRE","unitdesc":""},"geometry":{"type":"Point","coordinates":[-118.37021389769752,34.150323746290034]}}]
}