{
"type": "FeatureCollection",
"crs": { "type": "name", "properties": { "name": "urn:ogc:def:crs:OGC:1.3:CRS84" } },
"features": [
{ "type": "Feature", "properties": { "x_coord": "6468261.23133615", "y_coord": "1853003.78836346", "fs_cd": 52, "sttype": "AVE", "stname": "MELROSE", "hseno": "4957.0", "address": "4957 MELROSE AVE.", "nc_name": "HOLLYWOOD STUDIO DISTRICT NC" }, "geometry": { "type": "Point", "coordinates": [ -118.308474785653743, 34.083750127940966 ] } },
{ "type": "Feature", "properties": { "x_coord": "6474895.4099969", "y_coord": "1850557.76471221", "fs_cd": 6, "sttype": "AVE", "stname": "VIRGIL", "hseno": "326.0", "address": "326 N. VIRGIL AVE.", "nc_name": "RAMPART VILLAGE NC" }, "geometry": { "type": "Point", "coordinates": [ -118.286542268927448, 34.077082773502752 ] } },
{ "type": "Feature", "properties": { "x_coord": "6434222.00610764", "y_coord": "1838657.47355221", "fs_cd": 92, "sttype": "BLVD", "stname": "PICO", "hseno": "10556.0", "address": "10556 W. PICO BLVD", "nc_name": "WESTSIDE NC" }, "geometry": { "type": "Point", "coordinates": [ -118.42037285259569, 34.044045295062141 ] } },
{ "type": "Feature", "properties": { "x_coord": "6407434.92713597", "y_coord": "1892973.60442105", "fs_cd": 100, "sttype": "AVE", "stname": "LOUISE", "hseno": "6751.0", "address": "6751 LOUISE AVE", "nc_name": "LAKE BALBOA NC" }, "geometry": { "type": "Point", "coordinates": [ -118.510022834825406, 34.192900556972354 ] } },
{ "type": "Feature", "properties": { "x_coord": "6459832.45849556", "y_coord": "1918632.38709287", "fs_cd": 24, "sttype": "ST", "stname": "WENTWORTH", "hseno": "9411.0", "address": "9411 WENTWORTH ST", "nc_name": "FOOTHILL TRAILS DISTRICT NC" }, "geometry": { "type": "Point", "coordinates": [ -118.337037648818892, 34.264013643264569 ] } },
{ "type": "Feature", "properties": { "x_coord": "6427351.43257847", "y_coord": "1900317.93258013", "fs_cd": 81, "sttype": "ST", "stname": "ARMINTA", "hseno": "14355.0", "address": "14355 ARMINTA ST", "nc_name": "PANORAMA CITY NC" }, "geometry": { "type": "Point", "coordinates": [ -118.444269995307479, 34.213341385877939 ] } },
{ "type": "Feature", "properties": { "x_coord": "6431749.1675494", "y_coord": "1813274.91801821", "fs_cd": 67, "sttype": "DR", "stname": "PLAYA VISTA", "hseno": "5451.0", "address": "5451 PLAYA VISTA DR", "nc_name": "NC WESTCHESTER\/PLAYA" }, "geometry": { "type": "Point", "coordinates": [ -118.428496603659667, 33.974213794327227 ] } },
{ "type": "Feature", "properties": { "x_coord": "6472461.73113723", "y_coord": "1732654.1937613", "fs_cd": 36, "sttype": "ST", "stname": "GAFFEY", "hseno": "1005.0", "address": "1005 N GAFFEY ST", "nc_name": "NORTHWEST SAN PEDRO NC" }, "geometry": { "type": "Point", "coordinates": [ -118.293442253872129, 33.753085744602203 ] } },
{ "type": "Feature", "properties": { "x_coord": "6439249.11186706", "y_coord": "1806487.33808947", "fs_cd": 5, "sttype": "AVE", "stname": "EMERSON", "hseno": "6621.0", "address": "8900 EMERSON AVE", "nc_name": "NC WESTCHESTER\/PLAYA" }, "geometry": { "type": "Point", "coordinates": [ -118.40367050081025, 33.955648038995335 ] } },
{ "type": "Feature", "properties": { "x_coord": "6392819.00000307", "y_coord": "1923584.99989104", "fs_cd": 8, "sttype": "AVE", "stname": "TAMPA", "hseno": "11351.0", "address": "11351 TAMPA AVE", "nc_name": "PORTER RANCH NC" }, "geometry": { "type": "Point", "coordinates": [ -118.558917577715576, 34.276801968791823 ] } },
{ "type": "Feature", "properties": { "x_coord": "6486410.00015664", "y_coord": "1837573.99999738", "fs_cd": 9, "sttype": "ST", "stname": "7TH", "hseno": "430.0", "address": "430 E 7TH ST", "nc_name": "DOWNTOWN LOS ANGELES" }, "geometry": { "type": "Point", "coordinates": [ -118.247897166847309, 34.041237014975891 ] } },
{ "type": "Feature", "properties": { "x_coord": "6481672.00011823", "y_coord": "1836087.00001863", "fs_cd": 10, "sttype": "ST", "stname": "OLIVE", "hseno": "1335.0", "address": "1335 S OLIVE ST", "nc_name": "DOWNTOWN LOS ANGELES" }, "geometry": { "type": "Point", "coordinates": [ -118.264038708651654, 34.037370268976879 ] } },
{ "type": "Feature", "properties": { "x_coord": "6478720.00011674", "y_coord": "1842668.99997796", "fs_cd": 11, "sttype": "ST", "stname": "7TH", "hseno": "1819.0", "address": "1819 W 7TH ST", "nc_name": "WESTLAKE SOUTH NC" }, "geometry": { "type": "Point", "coordinates": [ -118.273841525932809, 34.055434913651773 ] } },
{ "type": "Feature", "properties": { "x_coord": "6503928.99989548", "y_coord": "1862802.00006622", "fs_cd": 12, "sttype": "ST", "stname": "FIGUEROA", "hseno": "5921.0", "address": "5921 N FIGUEROA ST", "nc_name": "HISTORIC HIGHLAND PARK NC" }, "geometry": { "type": "Point", "coordinates": [ -118.190742481138756, 34.110917602664919 ] } },
{ "type": "Feature", "properties": { "x_coord": "6473433.99986199", "y_coord": "1840328.0000668", "fs_cd": 13, "sttype": "BLVD", "stname": "PICO", "hseno": "2401.0", "address": "2401 W PICO BLVD", "nc_name": "PICO UNION NC" }, "geometry": { "type": "Point", "coordinates": [ -118.289378162222249, 34.047518357055196 ] } },
{ "type": "Feature", "properties": { "x_coord": "6483827.00007331", "y_coord": "1827119.99990805", "fs_cd": 14, "sttype": "AVE", "stname": "CENTRAL", "hseno": "3401.0", "address": "3401 S CENTRAL AV", "nc_name": "SOUTH CENTRAL NC" }, "geometry": { "type": "Point", "coordinates": [ -118.256850093325056, 34.012745664219786 ] } },
{ "type": "Feature", "properties": { "x_coord": "6475519.99995506", "y_coord": "1831292.00009422", "fs_cd": 15, "sttype": "BLVD", "stname": "JEFFERSON", "hseno": "915.0", "address": "915 W JEFFERSON BLVD", "nc_name": "EMPOWERMENT CONGRESS NORTH AREA NDC" }, "geometry": { "type": "Point", "coordinates": [ -118.284299770898684, 34.024148231900909 ] } },
{ "type": "Feature", "properties": { "x_coord": "6506975.00003706", "y_coord": "1846514.00016196", "fs_cd": 16, "sttype": "AVE", "stname": "EASTERN", "hseno": "2011.0", "address": "2011 N EASTERN AV", "nc_name": "LA-32 NC" }, "geometry": { "type": "Point", "coordinates": [ -118.180583049728185, 34.066175918675896 ] } },
{ "type": "Feature", "properties": { "x_coord": "6491866.2126694", "y_coord": "1831826.78741047", "fs_cd": 17, "sttype": "AVE", "stname": "SANTA FE", "hseno": "1601.0", "address": "1601 S SANTA FE AV", "nc_name": "DOWNTOWN LOS ANGELES" }, "geometry": { "type": "Point", "coordinates": [ -118.230358532137785, 34.025732736265503 ] } },
{ "type": "Feature", "properties": { "x_coord": "6410218.9999799", "y_coord": "1928150.99994539", "fs_cd": 18, "sttype": "BLVD", "stname": "BALBOA", "hseno": "12050.0", "address": "12050 BALBOA BLVD", "nc_name": "GRANADA HILLS NORTH NC" }, "geometry": { "type": "Point", "coordinates": [ -118.50139670323307, 34.289600743071965 ] } },
{ "type": "Feature", "properties": { "x_coord": "6481295.99988598", "y_coord": "1850581.99989997", "fs_cd": 20, "sttype": "BLVD", "stname": "SUNSET", "hseno": "2144.0", "address": "2144 W SUNSET BLVD", "nc_name": "GREATER ECHO PARK ELYSIAN NC" }, "geometry": { "type": "Point", "coordinates": [ -118.265406095269995, 34.077197656814384 ] } },
{ "type": "Feature", "properties": { "x_coord": "6484517.00000565", "y_coord": "1821112.00011304", "fs_cd": 21, "sttype": "ST", "stname": "51ST", "hseno": "1192.0", "address": "1192 E 51ST ST", "nc_name": "CENTRAL ALAMEDA NC" }, "geometry": { "type": "Point", "coordinates": [ -118.254872698024315, 33.996905503210186 ] } },
{ "type": "Feature", "properties": { "x_coord": "6498770.0000429", "y_coord": "1833751.00009747", "fs_cd": 25, "sttype": "BLVD", "stname": "WHITTIER", "hseno": "2927.0", "address": "2927 WHITTIER BLVD", "nc_name": "BOYLE HEIGHTS NC" }, "geometry": { "type": "Point", "coordinates": [ -118.207587532137069, 34.03106151229337 ] } },
{ "type": "Feature", "properties": { "x_coord": "6467953.99999523", "y_coord": "1836627.99992087", "fs_cd": 26, "sttype": "AVE", "stname": "WESTERN", "hseno": "2009.0", "address": "2009 S WESTERN AVE", "nc_name": "UNITED NEIGHBORHOODS OF THE HISTORIC ARLINGTON HEIGHTS, WEST ADAMS, AND JEFFERSON PARK COMMUNITY" }, "geometry": { "type": "Point", "coordinates": [ -118.309322995465621, 34.038749345257848 ] } },
{ "type": "Feature", "properties": { "x_coord": "6461708.67882448", "y_coord": "1857346.8026433", "fs_cd": 27, "sttype": "AVE", "stname": "COLE", "hseno": "1327.0", "address": "1327 N COLE AVE", "nc_name": "CENTRAL HOLLYWOOD NC" }, "geometry": { "type": "Point", "coordinates": [ -118.330161785112324, 34.095626885067993 ] } },
{ "type": "Feature", "properties": { "x_coord": "6466153.99998631", "y_coord": "1845088.00006121", "fs_cd": 29, "sttype": "BLVD", "stname": "WILSHIRE", "hseno": "4029.0", "address": "4029 W WILSHIRE BLVD", "nc_name": "GREATER WILSHIRE NC" }, "geometry": { "type": "Point", "coordinates": [ -118.315351931551987, 34.061980762165668 ] } },
{ "type": "Feature", "properties": { "x_coord": "6478723.00011073", "y_coord": "1815701.0001083", "fs_cd": 33, "sttype": "ST", "stname": "MAIN", "hseno": "6406.0", "address": "6406 S MAIN ST", "nc_name": "COMMUNITY AND NEIGHBORS FOR NINTH DISTRICT UNITY (CANNDU)" }, "geometry": { "type": "Point", "coordinates": [ -118.273589291063658, 33.981331046548206 ] } },
{ "type": "Feature", "properties": { "x_coord": "6463150.00008881", "y_coord": "1830266.99984764", "fs_cd": 34, "sttype": "AVE", "stname": "7TH", "hseno": "3661.0", "address": "3661 7TH AVE", "nc_name": "UNITED NEIGHBORHOODS OF THE HISTORIC ARLINGTON HEIGHTS, WEST ADAMS, AND JEFFERSON PARK COMMUNITY" }, "geometry": { "type": "Point", "coordinates": [ -118.325111827232973, 34.021228651606059 ] } },
{ "type": "Feature", "properties": { "x_coord": "6425639.99997772", "y_coord": "1844518.99988689", "fs_cd": 37, "sttype": "AVE", "stname": "VETERAN", "hseno": "1090.0", "address": "1090 VETERAN AVE", "nc_name": "WESTWOOD NC" }, "geometry": { "type": "Point", "coordinates": [ -118.449106146381311, 34.059993904521505 ] } },
{ "type": "Feature", "properties": { "x_coord": "6482138.99984039", "y_coord": "1742788.99993521", "fs_cd": 38, "sttype": "ST", "stname": "I", "hseno": "124.0", "address": "124 E I ST", "nc_name": "WILMINGTON NC" }, "geometry": { "type": "Point", "coordinates": [ -118.261695544192449, 33.781007377082318 ] } },
{ "type": "Feature", "properties": { "x_coord": "6426519.99985814", "y_coord": "1889985.00016205", "fs_cd": 39, "sttype": "ST", "stname": "SYLVAN", "hseno": "14415.0", "address": "14415 SYLVAN ST", "nc_name": "VAN NUYS NC" }, "geometry": { "type": "Point", "coordinates": [ -118.446868117457782, 34.184937972837297 ] } },
{ "type": "Feature", "properties": { "x_coord": "6482170.00010648", "y_coord": "1730367.99984288", "fs_cd": 40, "sttype": "ST", "stname": "FERRY", "hseno": "330.0", "address": "330 FERRY ST", "nc_name": "WILMINGTON NC" }, "geometry": { "type": "Point", "coordinates": [ -118.261487207022626, 33.746877440916997 ] } },
{ "type": "Feature", "properties": { "x_coord": "6454750.00015657", "y_coord": "1857836.00015572", "fs_cd": 41, "sttype": "ST", "stname": "GARDNER", "hseno": "1439.0", "address": "1439 N GARDNER ST", "nc_name": "HOLLYWOOD HILLS WEST NC" }, "geometry": { "type": "Point", "coordinates": [ -118.35315183308775, 34.096906132374933 ] } },
{ "type": "Feature", "properties": { "x_coord": "6431896.78306781", "y_coord": "1824798.41892129", "fs_cd": 62, "sttype": "BLVD", "stname": "VENICE", "hseno": "11970.0", "address": "11970 W. VENICE BLVD", "nc_name": "MAR VISTA CC" }, "geometry": { "type": "Point", "coordinates": [ -118.428171638689719, 34.005880095228164 ] } },
{ "type": "Feature", "properties": { "x_coord": "6497900.00014249", "y_coord": "1873209.99991946", "fs_cd": 42, "sttype": "BLVD", "stname": "COLORADO", "hseno": "2021.0", "address": "2021 COLORADO BLVD", "nc_name": "EAGLE ROCK NC" }, "geometry": { "type": "Point", "coordinates": [ -118.210731948362863, 34.13948426993484 ] } },
{ "type": "Feature", "properties": { "x_coord": "6438805.62358081", "y_coord": "1831047.37558347", "fs_cd": 43, "sttype": "AVE", "stname": "MOTOR", "hseno": "3690.0", "address": "3690 S. MOTOR AVE", "nc_name": "PALMS NC" }, "geometry": { "type": "Point", "coordinates": [ -118.405544523000813, 34.023085283729976 ] } },
{ "type": "Feature", "properties": { "x_coord": "6505058.08917274", "y_coord": "1853536.1488473", "fs_cd": 47, "sttype": "DR", "stname": "HUNTINGTON", "hseno": "4575.0", "address": "4575 S HUNTINGTON DR", "nc_name": "LA-32 NC" }, "geometry": { "type": "Point", "coordinates": [ -118.186955490024914, 34.085462161806809 ] } },
{ "type": "Feature", "properties": { "x_coord": "6473332.00006598", "y_coord": "1724136.99983771", "fs_cd": 48, "sttype": "AVE", "stname": "GRAND", "hseno": "1601.0", "address": "1601 S GRAND AVE", "nc_name": "CENTRAL SAN PEDRO NC" }, "geometry": { "type": "Point", "coordinates": [ -118.290498522813664, 33.729689420173976 ] } },
{ "type": "Feature", "properties": { "x_coord": "6487640.86711748", "y_coord": "1864446.27564904", "fs_cd": 50, "sttype": "DR", "stname": "FLETCHER", "hseno": "3036.0", "address": "3036 FLETCHER DR", "nc_name": "GLASSELL PARK NC" }, "geometry": { "type": "Point", "coordinates": [ -118.244565075870497, 34.11533892720518 ] } },
{ "type": "Feature", "properties": { "x_coord": "6495275.00014314", "y_coord": "1867638.99990663", "fs_cd": 55, "sttype": "BLVD", "stname": "YORK", "hseno": "4455.0", "address": "4455 E YORK BLVD", "nc_name": "EAGLE ROCK NC" }, "geometry": { "type": "Point", "coordinates": [ -118.219366672112926, 34.124160497936842 ] } },
{ "type": "Feature", "properties": { "x_coord": "6481865.00006032", "y_coord": "1861634.00010563", "fs_cd": 56, "sttype": "AVE", "stname": "ROWENA", "hseno": "2759.0", "address": "2759 ROWENA AVE", "nc_name": "SILVER LAKE NC" }, "geometry": { "type": "Point", "coordinates": [ -118.263622827356173, 34.107571072314315 ] } },
{ "type": "Feature", "properties": { "x_coord": "6445374.99987774", "y_coord": "1841194.99997321", "fs_cd": 58, "sttype": "BLVD", "stname": "ROBERTSON", "hseno": "1556.0", "address": "1556 S ROBERTSON BLVD", "nc_name": "SOUTH ROBERTSON NC" }, "geometry": { "type": "Point", "coordinates": [ -118.383967644888699, 34.050699789423014 ] } },
{ "type": "Feature", "properties": { "x_coord": "6427033.00014448", "y_coord": "1836026.00014064", "fs_cd": 59, "sttype": "BLVD", "stname": "OLYMPIC", "hseno": "11505.0", "address": "11505 W OLYMPIC BLVD", "nc_name": "WEST LOS ANGELES NC" }, "geometry": { "type": "Point", "coordinates": [ -118.444383106279943, 34.036673573056611 ] } },
{ "type": "Feature", "properties": { "x_coord": "6447138.99995865", "y_coord": "1883554.99989872", "fs_cd": 60, "sttype": "AVE", "stname": "TUJUNGA", "hseno": "5320.0", "address": "5320 TUJUNGA AVE", "nc_name": "MID-TOWN NORTH HOLLYWOOD NC" }, "geometry": { "type": "Point", "coordinates": [ -118.378611150074477, 34.167501961131677 ] } },
{ "type": "Feature", "properties": { "x_coord": "6488796.75719415", "y_coord": "1802837.75155664", "fs_cd": 65, "sttype": "BLVD", "stname": "CENTURY", "hseno": "1801.0", "address": "1801 E CENTURY BLVD", "nc_name": "WATTS NC" }, "geometry": { "type": "Point", "coordinates": [ -118.240259770064412, 33.946055695122816 ] } },
{ "type": "Feature", "properties": { "x_coord": "6490029.00013648", "y_coord": "1843988.99996263", "fs_cd": 4, "sttype": "ST", "stname": "TEMPLE", "hseno": "450.0", "address": "450 E TEMPLE ST", "nc_name": "HISTORIC CULTURAL NC" }, "geometry": { "type": "Point", "coordinates": [ -118.236079326155505, 34.050171452491895 ] } },
{ "type": "Feature", "properties": { "x_coord": "6456627.00001147", "y_coord": "1847823.99983855", "fs_cd": 61, "sttype": "ST", "stname": "3RD", "hseno": "5821.0", "address": "5821 W 3RD ST", "nc_name": "MID CITY WEST CC" }, "geometry": { "type": "Point", "coordinates": [ -118.347084494400889, 34.069411932568443 ] } },
{ "type": "Feature", "properties": { "x_coord": "6474745.15832889", "y_coord": "1824053.34035896", "fs_cd": 46, "sttype": "ST", "stname": "HOOVER", "hseno": "4370.0", "address": "4370 S. HOOVER ST.", "nc_name": "VOICES OF 90037" }, "geometry": { "type": "Point", "coordinates": [ -118.286788718055774, 34.004251477074483 ] } },
{ "type": "Feature", "properties": { "x_coord": "6491737.95636423", "y_coord": "1857708.59981996", "fs_cd": 44, "sttype": "AVE", "stname": "CYPRESS", "hseno": "1410.0", "address": "1410 CYPRESS AVE", "nc_name": "GREATER CYPRESS PARK NC" }, "geometry": { "type": "Point", "coordinates": [ -118.230978085945623, 34.096851376946212 ] } },
{ "type": "Feature", "properties": { "x_coord": "6455938.00007714", "y_coord": "1837474.99986729", "fs_cd": 68, "sttype": "BLVD", "stname": "WASHINGTON", "hseno": "5023.0", "address": "5023 W WASHINGTON BLVD", "nc_name": "MID CITY NC" }, "geometry": { "type": "Point", "coordinates": [ -118.349247279176296, 34.04102556541158 ] } },
{ "type": "Feature", "properties": { "x_coord": "6422717.99991623", "y_coord": "1819469.00011821", "fs_cd": 63, "sttype": "AVE", "stname": "SHELL", "hseno": "1930.0", "address": "1930 SHELL AVE", "nc_name": "VENICE NC" }, "geometry": { "type": "Point", "coordinates": [ -118.458376151158262, 33.991124554981624 ] } },
{ "type": "Feature", "properties": { "x_coord": "6478455.99998856", "y_coord": "1799944.0001263", "fs_cd": 64, "sttype": "ST", "stname": "MAIN", "hseno": "10811.0", "address": "10811 S. MAIN ST", "nc_name": "EMPOWERMENT CONGRESS SOUTHEAST AREA NDC" }, "geometry": { "type": "Point", "coordinates": [ -118.274328138395447, 33.9380314189331 ] } },
{ "type": "Feature", "properties": { "x_coord": "6399561.99996848", "y_coord": "1913586.99987397", "fs_cd": 70, "sttype": "BLVD", "stname": "RESEDA", "hseno": "9861.0", "address": "9861 RESEDA BLVD", "nc_name": "NORTHRIDGE WEST" }, "geometry": { "type": "Point", "coordinates": [ -118.53642079516824, 34.249430128464077 ] } },
{ "type": "Feature", "properties": { "x_coord": "6465498.99998398", "y_coord": "1860200.00002088", "fs_cd": 82, "sttype": "BLVD", "stname": "HOLLYWOOD", "hseno": "5769.0", "address": "5769 HOLLYWOOD BLVD", "nc_name": "HOLLYWOOD UNITED NC" }, "geometry": { "type": "Point", "coordinates": [ -118.315456048924389, 34.102046403628698 ] } },
{ "type": "Feature", "properties": { "x_coord": "6474558.99990857", "y_coord": "1858902.99999021", "fs_cd": 35, "sttype": "AVE", "stname": "HILLHURST", "hseno": "1601.0", "address": "1601 N HILLHURST AVE", "nc_name": "LOS FELIZ NC" }, "geometry": { "type": "Point", "coordinates": [ -118.287746538694563, 34.100217673230304 ] } },
{ "type": "Feature", "properties": { "x_coord": "6429783.99989182", "y_coord": "1851971.00007471", "fs_cd": 71, "sttype": "BLVD", "stname": "BEVERLY GLEN", "hseno": "107.0", "address": "107 S BEVERLY GLEN BLVD", "nc_name": "WESTWOOD NC" }, "geometry": { "type": "Point", "coordinates": [ -118.435531079308461, 34.080520888558787 ] } },
{ "type": "Feature", "properties": { "x_coord": "6383625.0000184", "y_coord": "1893486.0000498", "fs_cd": 72, "sttype": "AVE", "stname": "DE SOTO", "hseno": "6811.0", "address": "6811 DE SOTO AVE", "nc_name": "CANOGA PARK NC" }, "geometry": { "type": "Point", "coordinates": [ -118.588767184723864, 34.193950932464887 ] } },
{ "type": "Feature", "properties": { "x_coord": "6399489.00011449", "y_coord": "1897468.9999578", "fs_cd": 73, "sttype": "BLVD", "stname": "RESEDA", "hseno": "7419.0", "address": "7419 RESEDA BLVD", "nc_name": "RESEDA NC" }, "geometry": { "type": "Point", "coordinates": [ -118.536377745165993, 34.205139506864761 ] } },
{ "type": "Feature", "properties": { "x_coord": "6470476.99987048", "y_coord": "1916646.99998754", "fs_cd": 74, "sttype": "BLVD", "stname": "FOOTHILL", "hseno": "7777.0", "address": "7777 FOOTHILL BLVD", "nc_name": "SUNLAND-TUJUNGA NC" }, "geometry": { "type": "Point", "coordinates": [ -118.301788222615826, 34.258651032352134 ] } },
{ "type": "Feature", "properties": { "x_coord": "6420707.00000124", "y_coord": "1921863.00005421", "fs_cd": 75, "sttype": "BLVD", "stname": "SAN FERNANDO MISSION", "hseno": "15345.0", "address": "15345 SAN FERNANDO MISSION BLV", "nc_name": "MISSION HILLS NC" }, "geometry": { "type": "Point", "coordinates": [ -118.466578043826516, 34.272461109295072 ] } },
{ "type": "Feature", "properties": { "x_coord": "6457008.99990365", "y_coord": "1868669.00014322", "fs_cd": 76, "sttype": "BLVD", "stname": "CAHUENGA", "hseno": "3111.0", "address": "3111 N CAHUENGA BLVD WEST", "nc_name": "HOLLYWOOD HILLS WEST NC" }, "geometry": { "type": "Point", "coordinates": [ -118.345813390179288, 34.126695176910253 ] } },
{ "type": "Feature", "properties": { "x_coord": "6450759.36903022", "y_coord": "1908576.5446718", "fs_cd": 77, "sttype": "BLVD", "stname": "SUNLAND", "hseno": "9224.0", "address": "9224 SUNLAND BLVD", "nc_name": "FOOTHILL TRAILS DISTRICT NC" }, "geometry": { "type": "Point", "coordinates": [ -118.366944830725373, 34.236294355377716 ] } },
{ "type": "Feature", "properties": { "x_coord": "6438895.57517256", "y_coord": "1875197.2807218", "fs_cd": 78, "sttype": "AVE", "stname": "WHITSETT", "hseno": "4041.0", "address": "4041 WHITSETT AVE", "nc_name": "STUDIO CITY NC" }, "geometry": { "type": "Point", "coordinates": [ -118.405750850537203, 34.144447832764875 ] } },
{ "type": "Feature", "properties": { "x_coord": "6473538.99998006", "y_coord": "1774632.99989538", "fs_cd": 79, "sttype": "AVE", "stname": "VERMONT", "hseno": "18030.0", "address": "18030 S VERMONT AVE", "nc_name": "HARBOR GATEWAY SOUTH NC" }, "geometry": { "type": "Point", "coordinates": [ -118.290297377111486, 33.868443382799249 ] } },
{ "type": "Feature", "properties": { "x_coord": "6436608.66439207", "y_coord": "1802182.15313029", "fs_cd": 80, "sttype": "WAY", "stname": "WORLD", "hseno": "7250.0", "address": "7250 WORLD WAY WEST", "nc_name": "NC WESTCHESTER\/PLAYA" }, "geometry": { "type": "Point", "coordinates": [ -118.419402840587679, 33.940631724725186 ] } },
{ "type": "Feature", "properties": { "x_coord": "6428745.00000131", "y_coord": "1908407.00006337", "fs_cd": 7, "sttype": "ST", "stname": "NORDHOFF", "hseno": "14123.0", "address": "14123 NORDHOFF ST", "nc_name": "ARLETA NC" }, "geometry": { "type": "Point", "coordinates": [ -118.439777659091192, 34.235585723757346 ] } },
{ "type": "Feature", "properties": { "x_coord": "6485335.80939165", "y_coord": "1843771.55846839", "fs_cd": 3, "sttype": "AVE", "stname": "FREMONT", "hseno": "108.0", "address": "108 N. FREMONT AVE", "nc_name": "DOWNTOWN LOS ANGELES" }, "geometry": { "type": "Point", "coordinates": [ -118.252009202904517, 34.058512133206641 ] } },
{ "type": "Feature", "properties": { "x_coord": "6467219.0001529", "y_coord": "1818678.0000598", "fs_cd": 66, "sttype": "BLVD", "stname": "SLAUSON", "hseno": "1909.0", "address": "1909 W SLAUSON BLVD", "nc_name": "EMPOWERMENT CONGRESS CENTRAL AREA NDC" }, "geometry": { "type": "Point", "coordinates": [ -118.311565389319043, 33.989419349185241 ] } },
{ "type": "Feature", "properties": { "x_coord": "6438453.99994023", "y_coord": "1869383.00002755", "fs_cd": 108, "sttype": "DR", "stname": "MULHOLLAND", "hseno": "12520.0", "address": "12520 MULHOLLAND DR", "nc_name": "BEL AIR-BEVERLY CREST NC" }, "geometry": { "type": "Point", "coordinates": [ -118.406169395096128, 34.127097716473564 ] } },
{ "type": "Feature", "properties": { "x_coord": "6410230.17187357", "y_coord": "1881367.71063814", "fs_cd": 83, "sttype": "BLVD", "stname": "BALBOA", "hseno": "4960.0", "address": "4960 BALBOA BLVD", "nc_name": "ENCINO NC" }, "geometry": { "type": "Point", "coordinates": [ -118.500588373164462, 34.161048079388621 ] } },
{ "type": "Feature", "properties": { "x_coord": "6382763.40200406", "y_coord": "1885785.61879705", "fs_cd": 84, "sttype": "BLVD", "stname": "BURBANK", "hseno": "21050.0", "address": "21050 BURBANK BLVD", "nc_name": "WOODLAND HILLS-WARNER CENTER NC" }, "geometry": { "type": "Point", "coordinates": [ -118.591466505836038, 34.172777745754104 ] } },
{ "type": "Feature", "properties": { "x_coord": "6470505.00014256", "y_coord": "1747921.9998398", "fs_cd": 85, "sttype": "ST", "stname": "253RD", "hseno": "1331.0", "address": "1331 W 253RD ST", "nc_name": "HARBOR CITY NC" }, "geometry": { "type": "Point", "coordinates": [ -118.300028851084392, 33.795022438141949 ] } },
{ "type": "Feature", "properties": { "x_coord": "6410057.90351731", "y_coord": "1915460.12047155", "fs_cd": 87, "sttype": "BLVD", "stname": "BALBOA", "hseno": "10124.0", "address": "10124 BALBOA BLVD", "nc_name": "NORTH HILLS WEST NC" }, "geometry": { "type": "Point", "coordinates": [ -118.501720320045578, 34.254726089094838 ] } },
{ "type": "Feature", "properties": { "x_coord": "6441681.00004789", "y_coord": "1895081.00014064", "fs_cd": 89, "sttype": "BLVD", "stname": "LAUREL CANYON", "hseno": "7063.0", "address": "7063 LAUREL CANYON BLVD", "nc_name": "NORTH HOLLYWOOD NORTHEAST NC" }, "geometry": { "type": "Point", "coordinates": [ -118.396804706616749, 34.19911583475195 ] } },
{ "type": "Feature", "properties": { "x_coord": "6426615.99999423", "y_coord": "1935281.00012104", "fs_cd": 91, "sttype": "ST", "stname": "POLK", "hseno": "14430.0", "address": "14430 POLK ST", "nc_name": "SYLMAR NC" }, "geometry": { "type": "Point", "coordinates": [ -118.447217055850089, 34.309405430767676 ] } },
{ "type": "Feature", "properties": { "x_coord": "6395657.99990249", "y_coord": "1885728.00014588", "fs_cd": 93, "sttype": "BLVD", "stname": "VENTURA", "hseno": "19059.0", "address": "19059 VENTURA BLVD", "nc_name": "TARZANA NC" }, "geometry": { "type": "Point", "coordinates": [ -118.548835917825528, 34.17282039981702 ] } },
{ "type": "Feature", "properties": { "x_coord": "6457060.00012973", "y_coord": "1829041.00000305", "fs_cd": 94, "sttype": "ST", "stname": "COLISEUM", "hseno": "4470.0", "address": "4470 COLISEUM ST", "nc_name": "EMPOWERMENT CONGRESS WEST AREA NDC" }, "geometry": { "type": "Point", "coordinates": [ -118.345385833852859, 34.017567396203951 ] } },
{ "type": "Feature", "properties": { "x_coord": "6446038.99986206", "y_coord": "1802705.99985163", "fs_cd": 95, "sttype": "RD", "stname": "INTERNATIONAL", "hseno": "10010.0", "address": "10010 INTERNATIONAL RD", "nc_name": "NC WESTCHESTER\/PLAYA" }, "geometry": { "type": "Point", "coordinates": [ -118.381233851964566, 33.945330440360692 ] } },
{ "type": "Feature", "properties": { "x_coord": "6379422.99989224", "y_coord": "1912945.99984363", "fs_cd": 96, "sttype": "ST", "stname": "MARILLA", "hseno": "21800.0", "address": "21800 MARILLA ST", "nc_name": "CHATSWORTH NC" }, "geometry": { "type": "Point", "coordinates": [ -118.603048554113741, 34.247355106835492 ] } },
{ "type": "Feature", "properties": { "x_coord": "6448298.96614264", "y_coord": "1868249.70012879", "fs_cd": 97, "sttype": "DR", "stname": "MULHOLLAND", "hseno": "8021.0", "address": "8021 MULHOLLAND DR", "nc_name": "STUDIO CITY NC" }, "geometry": { "type": "Point", "coordinates": [ -118.374587958014715, 34.125457236119516 ] } },
{ "type": "Feature", "properties": { "x_coord": "6435637.99999481", "y_coord": "1920925.99995971", "fs_cd": 98, "sttype": "BLVD", "stname": "VAN NUYS", "hseno": "13035.0", "address": "13035 VAN NUYS BLVD", "nc_name": "PACOIMA NC" }, "geometry": { "type": "Point", "coordinates": [ -118.417143999990799, 34.270066736129117 ] } },
{ "type": "Feature", "properties": { "x_coord": "6428400.81630649", "y_coord": "1870644.6874648", "fs_cd": 99, "sttype": "DR", "stname": "MULHOLLAND", "hseno": "14145.0", "address": "14145 MULHOLLAND DR", "nc_name": "SHERMAN OAKS NC" }, "geometry": { "type": "Point", "coordinates": [ -118.440369034934221, 34.131816639046463 ] } },
{ "type": "Feature", "properties": { "x_coord": "6467307.69616974", "y_coord": "1721328.2813738", "fs_cd": 101, "sttype": "ST", "stname": "25TH", "hseno": "1414.0", "address": "1414 W 25TH ST", "nc_name": "COASTAL SAN PEDRO NC" }, "geometry": { "type": "Point", "coordinates": [ -118.310281491791642, 33.721922264383515 ] } },
{ "type": "Feature", "properties": { "x_coord": "6434214.99988806", "y_coord": "1885195.99989755", "fs_cd": 102, "sttype": "BLVD", "stname": "BURBANK", "hseno": "13200.0", "address": "13200 BURBANK BLVD", "nc_name": "SHERMAN OAKS NC" }, "geometry": { "type": "Point", "coordinates": [ -118.421358205741811, 34.171869862965259 ] } },
{ "type": "Feature", "properties": { "x_coord": "6401950.00011373", "y_coord": "1906120.00004421", "fs_cd": 103, "sttype": "ST", "stname": "PARTHENIA", "hseno": "18143.0", "address": "18143 PARTHENIA ST", "nc_name": "NORTHRIDGE SOUTH NC" }, "geometry": { "type": "Point", "coordinates": [ -118.528388919553251, 34.228946822698163 ] } },
{ "type": "Feature", "properties": { "x_coord": "6388941.99988306", "y_coord": "1903362.99998079", "fs_cd": 104, "sttype": "AVE", "stname": "WINNETKA", "hseno": "8349.0", "address": "8349 WINNETKA AVE", "nc_name": "WINNETKA NC" }, "geometry": { "type": "Point", "coordinates": [ -118.571370407854886, 34.221175516456633 ] } },
{ "type": "Feature", "properties": { "x_coord": "6373045.99985097", "y_coord": "1890453.99988021", "fs_cd": 105, "sttype": "AVE", "stname": "FALLBROOK", "hseno": "6345.0", "address": "6345 FALLBROOK AVE", "nc_name": "WOODLAND HILLS-WARNER CENTER NC" }, "geometry": { "type": "Point", "coordinates": [ -118.623687866706433, 34.185444217528875 ] } },
{ "type": "Feature", "properties": { "x_coord": "6371843.9999584", "y_coord": "1902689.00001647", "fs_cd": 106, "sttype": "BLVD", "stname": "ROSCOE", "hseno": "23004.0", "address": "23004 ROSCOE BLVD", "nc_name": "WEST HILLS NC" }, "geometry": { "type": "Point", "coordinates": [ -118.627914982535358, 34.219043203874932 ] } },
{ "type": "Feature", "properties": { "x_coord": "6388381.00002082", "y_coord": "1916595.00009155", "fs_cd": 107, "sttype": "ST", "stname": "DEVONSHIRE", "hseno": "20225.0", "address": "20225 DEVONSHIRE ST", "nc_name": "CHATSWORTH NC" }, "geometry": { "type": "Point", "coordinates": [ -118.57347587033405, 34.257525972459192 ] } },
{ "type": "Feature", "properties": { "x_coord": "6480098.9999834", "y_coord": "1723632.99986146", "fs_cd": 111, "sttype": "AVE", "stname": "SEASIDE", "hseno": "1444.0", "address": "1444 S SEASIDE AVE", "nc_name": "WILMINGTON NC" }, "geometry": { "type": "Point", "coordinates": [ -118.26813028712391, 33.730008584342343 ] } },
{ "type": "Feature", "properties": { "x_coord": "6483172.00007097", "y_coord": "1736676.00002213", "fs_cd": 49, "sttype": "ST", "stname": "YACHT", "hseno": "400.0", "address": "400 YACHT ST", "nc_name": "WILMINGTON NC" }, "geometry": { "type": "Point", "coordinates": [ -118.25556561504338, 33.76568595704989 ] } },
{ "type": "Feature", "properties": { "x_coord": "6420547.99999115", "y_coord": "1882048.99995796", "fs_cd": 88, "sttype": "BLVD", "stname": "SEPULVEDA", "hseno": "5101.0", "address": "5101 N SEPULVEDA BLVD", "nc_name": "SHERMAN OAKS NC" }, "geometry": { "type": "Point", "coordinates": [ -118.466492726898466, 34.163056540515953 ] } },
{ "type": "Feature", "properties": { "x_coord": "6441464.00015381", "y_coord": "1800833.99998671", "fs_cd": 51, "sttype": "BLVD", "stname": "SEPULVEDA", "hseno": "10435.0", "address": "10435 S SEPULVEDA BLVD", "nc_name": "NC WESTCHESTER\/PLAYA" }, "geometry": { "type": "Point", "coordinates": [ -118.397190241847298, 33.940485354022897 ] } },
{ "type": "Feature", "properties": { "x_coord": "6495557.99990523", "y_coord": "1849798.00015563", "fs_cd": 1, "sttype": "AVE", "stname": "PASADENA", "hseno": "2230.0", "address": "2230 PASADENA AVE", "nc_name": "LINCOLN HEIGHTS NC" }, "geometry": { "type": "Point", "coordinates": [ -118.218303581296155, 34.075137634294798 ] } },
{ "type": "Feature", "properties": { "x_coord": "6496909.00015599", "y_coord": "1840347.0000288", "fs_cd": 2, "sttype": "AVE", "stname": "CESAR E CHAVEZ", "hseno": "1962.0", "address": "1962 E CESAR E CHAVEZ AVE", "nc_name": "BOYLE HEIGHTS NC" }, "geometry": { "type": "Point", "coordinates": [ -118.213775956962138, 34.049175631063697 ] } },
{ "type": "Feature", "properties": { "x_coord": "6389579.26041956", "y_coord": "1925228.45526555", "fs_cd": 28, "sttype": "AVE", "stname": "CORBIN", "hseno": "11641.0", "address": "11641 CORBIN AVE", "nc_name": "PORTER RANCH NC" }, "geometry": { "type": "Point", "coordinates": [ -118.569672329790862, 34.281267920684087 ] } },
{ "type": "Feature", "properties": { "x_coord": "6412164.77299123", "y_coord": "1901375.78217046", "fs_cd": 114, "sttype": "ST", "stname": "ARMINTA", "hseno": "16617.0", "address": "16617 ARMINTA ST", "nc_name": "LAKE BALBOA NC" }, "geometry": { "type": "Point", "coordinates": [ -118.494518844737073, 34.216053313438159 ] } },
{ "type": "Feature", "properties": { "x_coord": "6449656.08350715", "y_coord": "1877294.11478272", "fs_cd": 86, "sttype": "AVE", "stname": "VINELAND", "hseno": "4305.0", "address": "4305 VINELAND AVE.", "nc_name": "GREATER TOLUCA LAKE NC" }, "geometry": { "type": "Point", "coordinates": [ -118.370213897697525, 34.150323746290034 ] } }
]
}
